[{"wall":{"address":"Ebikon, Schweiz","id":1169,"lat":"47.0692700658","lng":"8.2937339435","title":"Reuss Hall of Fame","responses_count":0}},{"wall":{"address":"Emmenweidstrasse, 6020 Emmen, Schweiz","id":583,"lat":"47.0721","lng":"8.27513","title":"Emmenbr\u00fccke hall of fame","responses_count":3}},{"wall":{"address":"2560 Nidau, Schweiz","id":972,"lat":"47.1249829625","lng":"7.2510412822","title":"Unterf\u00fchrung 2","responses_count":0}},{"wall":{"address":"2560 Nidau, Schweiz","id":971,"lat":"47.1263261299","lng":"7.2469723711","title":"Unterf\u00fchrung","responses_count":0}},{"wall":{"address":"2503 Biel/Bienne, Schweiz","id":969,"lat":"47.1395530715","lng":"7.2542013734","title":"HGcomercial","responses_count":0}},{"wall":{"address":"2503 Biel/Bienne, Schweiz","id":970,"lat":"47.1397047028","lng":"7.2546171158","title":"HGcomercial","responses_count":0}},{"wall":{"address":"Rue du Bois des Poules, 25320 Montferrand-le-Ch\u00e2teau, France","id":88,"lat":"47.1782","lng":"5.91007","title":"Montferrand Legal Wall","responses_count":0}},{"wall":{"address":"Rue de l'Abb\u00e9 Gr\u00e9goire, 44400 Rez\u00e9, France","id":660,"lat":"47.1948","lng":"-1.56664","title":"l abatoire de rez\u00e9","responses_count":0}},{"wall":{"address":"Chantenay-Bellevue-Sainte-Anne, Nantes, France","id":1225,"lat":"47.1963031443","lng":"-1.5916442871","title":"Usine \u00e0 Chat","responses_count":0}},{"wall":{"address":"Rue Joseph Cholet, 44100 Nantes, France","id":661,"lat":"47.2","lng":"-1.57999","title":"terrain butte st anne","responses_count":1}},{"wall":{"address":"\u00cele de Nantes, Nantes, France","id":1224,"lat":"47.200589563","lng":"-1.5694141388","title":"Usine \u00e0 Charbon","responses_count":0}},{"wall":{"address":"Quai Dumont d'Urville, 44200 Nantes, France","id":109,"lat":"47.2077","lng":"-1.54653","title":"? ","responses_count":3}},{"wall":{"address":"Avenue de la 7\u00e8me Arm\u00e9e Am\u00e9ricaine, 25000 Besan\u00e7on, France","id":85,"lat":"47.2205","lng":"6.02881","title":"Terrain Tarragnoz","responses_count":1}},{"wall":{"address":"Cit\u00e9s de la Rhodiaceta, 25000 Besan\u00e7on, France","id":86,"lat":"47.2283","lng":"6.04506","title":"Rhodia Firm","responses_count":4}},{"wall":{"address":"Sainte-Luce-sur-Loire, France","id":1239,"lat":"47.2349008337","lng":"-1.4777751267","title":"Skatepark Promenade de Bellevue","responses_count":0}},{"wall":{"address":"Doulon-Botti\u00e8re, Nantes, France","id":1238,"lat":"47.2362748836","lng":"-1.5141767263","title":"La Colini\u00e8re","responses_count":0}},{"wall":{"address":"Saint-Nazaire, France","id":1234,"lat":"47.239869242","lng":"-2.2681081295","title":"Fort de l'\u00e8ve","responses_count":0}},{"wall":{"address":"Saint-Nazaire, France","id":1255,"lat":"47.2518375444","lng":"-2.2597289085","title":"Parking Gavy","responses_count":0}},{"wall":{"address":"Nantes Erdre, Nantes, France","id":1237,"lat":"47.2532594314","lng":"-1.5199434757","title":"La Beaujoire","responses_count":0}},{"wall":{"address":"Tacoma, WA 98402, USA","id":1010,"lat":"47.2567727217","lng":"-122.4409861185","title":"Tacoma Garages","responses_count":1}},{"wall":{"address":"Tacoma, WA 98402, USA","id":1011,"lat":"47.2569402031","lng":"-122.4409968473","title":"Tacoma Garages","responses_count":0}},{"wall":{"address":"Saint-Nazaire, France","id":1251,"lat":"47.2582712329","lng":"-2.2254797816","title":"Vill\u00e8s Martin ","responses_count":0}},{"wall":{"address":"Saint-Nazaire, France","id":1256,"lat":"47.2681823892","lng":"-2.2485521436","title":"Mur d'expression La Chesnaie","responses_count":0}},{"wall":{"address":"Saint-Pierre-Montlimart, France","id":1232,"lat":"47.2695401368","lng":"-1.0250329971","title":"St Pierre","responses_count":0}},{"wall":{"address":"Saint-Nazaire, France","id":1254,"lat":"47.2707595319","lng":"-2.1992880106","title":"Squat du port","responses_count":0}},{"wall":{"address":"44570 Trignac, France","id":1257,"lat":"47.2918233314","lng":"-2.2063153982","title":"Micheletty","responses_count":0}},{"wall":{"address":"Saint-Nazaire, France","id":1252,"lat":"47.2939372545","lng":"-2.2568374872","title":"Beauregard","responses_count":0}},{"wall":{"address":"boulevard de chicago 21000 Dijon","id":515,"lat":"47.3025","lng":"5.06311","title":"les tanneries","responses_count":0}},{"wall":{"address":"44570 Trignac, France","id":1235,"lat":"47.3107655791","lng":"-2.1918797493","title":"Forges de Trignac","responses_count":0}},{"wall":{"address":"Gu\u00e9rande, France","id":1253,"lat":"47.336027106","lng":"-2.4244272709","title":"Skatepark","responses_count":0}},{"wall":{"address":"Joue Les Tours, France","id":335,"lat":"47.3404","lng":"0.656862","title":"Terrain aventure","responses_count":0}},{"wall":{"address":"Seestrasse 395, Z\u00fcrich, Schweiz","id":688,"lat":"47.3437","lng":"8.5356","title":"Red Factory","responses_count":0}},{"wall":{"address":"Widen, Schweiz","id":837,"lat":"47.365863839","lng":"8.3644439444","title":"c\u00e4\u00e4s\u00e4","responses_count":1}},{"wall":{"address":"Zurich","id":334,"lat":"47.3811","lng":"8.54153","title":"Zurich Letten Hall of Fame","responses_count":3}},{"wall":{"address":"Sihlquai, 8005 Z\u00fcrich, Schweiz","id":475,"lat":"47.3846","lng":"8.53621","title":"oberer Letten","responses_count":0}},{"wall":{"address":"Wasserwerkstrasse, Z\u00fcrich, Switzerland","id":19,"lat":"47.3867","lng":"8.5344","title":"Letten","responses_count":0}},{"wall":{"address":"Wasserwerkstrasse, Z\u00fcrich, Schweiz","id":367,"lat":"47.388","lng":"8.53144","title":"SBB-Viadukt, St\u00fctzmauer","responses_count":0}},{"wall":{"address":"Wasserwerkstrasse, Z\u00fcrich, Schweiz","id":366,"lat":"47.3884","lng":"8.53053","title":"Schneeabladerampe, Zurich","responses_count":0}},{"wall":{"address":"Wasserwerkstrasse 127a, Z\u00fcrich, Schweiz","id":365,"lat":"47.3888","lng":"8.52985","title":"Textilfachschule, Wasserwerkstr. 127a","responses_count":0}},{"wall":{"address":"5000 Aarau, Schweiz","id":1001,"lat":"47.3942508458","lng":"8.0412871132","title":"HALL OF FAME ","responses_count":0}},{"wall":{"address":"5000 Aarau, Schweiz","id":1003,"lat":"47.3943289218","lng":"8.0413702617","title":"HALL OF FAME ","responses_count":0}},{"wall":{"address":"5000 Aarau, Schweiz","id":1002,"lat":"47.3943361846","lng":"8.041413177","title":"HALL OF FAME ","responses_count":0}},{"wall":{"address":"5000 Aarau, Schweiz","id":1004,"lat":"47.394378734","lng":"8.0414353465","title":"Fl\u00f6sserplatz","responses_count":0}},{"wall":{"address":"Erlgrund, 6850 Dornbirn, \u00d6sterreich","id":728,"lat":"47.4034","lng":"9.72387","title":"Erlgrund","responses_count":0}},{"wall":{"address":"Fronwaldstrasse, 8046 Z\u00fcrich, Schweiz","id":368,"lat":"47.4191","lng":"8.51441","title":"Half-Pipe, Zurich Affoltern","responses_count":0}},{"wall":{"address":"P\u00f6schen-Weg, 8303 Bassersdorf, Switzerland","id":2,"lat":"47.4372","lng":"8.62362","title":"Hall of Fame Bassersdorf","responses_count":2}},{"wall":{"address":"Badenerstrasse, Baden","id":727,"lat":"47.4433","lng":"8.29518","title":"UF Fislisbach","responses_count":0}},{"wall":{"address":"Schwimmbadstrasse, Switzerland","id":296,"lat":"47.4557","lng":"8.3195","title":"Bridge by Wettingen, Switzerland","responses_count":3}},{"wall":{"address":"Barreg, 5405 Baden","id":380,"lat":"47.4587","lng":"8.28664","title":"Skaterpark","responses_count":1}},{"wall":{"address":"Liebesfels, 5400 Baden","id":381,"lat":"47.4589","lng":"8.30516","title":"Liebesfels","responses_count":1}},{"wall":{"address":"Unterf\u00fchrung Neuenhoferstrasse, 5400 Baden","id":379,"lat":"47.4673","lng":"8.30673","title":"UF Neuenhoferstrasse","responses_count":0}},{"wall":{"address":"J\u00e1szber\u00e9nyi \u00fat, X. ker\u00fclet, Budapest, Magyarorsz\u00e1g","id":349,"lat":"47.4872","lng":"19.1734","title":"Legal hungarian wall budapest","responses_count":2}},{"wall":{"address":"Boulevard du Doyenn\u00e9, 49100 Angers, France","id":338,"lat":"47.4903","lng":"-0.532939","title":"Chabada","responses_count":1}},{"wall":{"address":"Scheideggstrasse, Winterthur, Switzerland","id":7,"lat":"47.4973","lng":"8.75088","title":"Gr\u00fcze","responses_count":7}},{"wall":{"address":"4132 Muttenz, Schweiz","id":851,"lat":"47.5394230796","lng":"7.6232926193","title":"sch\u00e4nzli","responses_count":0}}]
